Station_ID	Station_Name	Latitude	Longitude	Elevation_ft	Elevation_m	Jan_Insol_MJperM2	Feb_Insol_MJperM2	Mar_Insol_MJperM2	Apr_Insol_MJperM2	May_Insol_MJperM2	Jun_Insol_MJperM2	Jul_Insol_MJperM2	Aug_Insol_MJperM2	Sep_Insol_MJperM2	Oct_Insol_MJperM2	Nov_Insol_MJperM2	Dec_Insol_MJperM2	River_Basin	Record_Type
DAN	Dana Meadows	37.897	-119.257	9800	2990	223.12	303.20	508.88	659.80	807.54	827.72	831.21	727.46	560.80	368.89	237.21	191.30	Tuolumne	BOTH
RFM	Rafferty Meadows	37.837	-119.325	9400	2870	242.55	322.40	527.53	669.33	804.48	818.07	825.01	733.44	577.53	389.33	256.62	209.19	Tuolumne	MONTHLY
BNP	Bond Pass	38.178	-119.623	9300	2830	220.58	300.52	505.73	657.81	805.01	823.98	828.23	725.45	557.79	365.83	234.71	188.97	Tuolumne	MONTHLY
SLI	Slide Canyon	38.092	-119.430	9200	2800	178.64	246.59	421.39	556.45	686.80	707.17	707.27	615.71	467.57	301.76	190.33	151.75	Tuolumne	ONLY_DAILY
NGM	New Grace Meadow	38.150	-119.617	8900	2710	263.98	340.66	538.34	662.46	777.28	783.00	793.07	719.71	583.97	407.23	277.46	230.23	Tuolumne	MONTHLY
TUM	Tuolumne Meadows	37.873	-119.350	8600	2620	211.48	290.13	491.61	642.28	788.11	807.55	811.35	709.03	543.07	353.87	225.40	180.71	Tuolumne	BOTH
HRS	Horse Meadow	38.158	-119.662	8400	2560	180.26	234.75	381.55	493.50	587.36	592.31	599.34	541.11	419.66	282.91	189.57	156.62	Tuolumne	BOTH
WLW	Wilma Lake	38.083	-119.633	8000	2440	211.60	289.49	488.74	635.95	777.17	794.87	799.18	701.49	539.22	352.91	225.13	180.12	Tuolumne	MONTHLY
SAS	Sachse Springs	38.085	-119.837	7900	2410	249.95	329.90	532.26	664.95	788.85	797.39	806.65	725.35	580.07	396.98	264.22	216.39	Tuolumne	MONTHLY
WHW	White Wolf	37.8595	-119.6516	7900	2410	194.38	271.38	468.67	621.78	770.60	792.51	794.74	688.97	520.24	332.90	208.00	165.07	Tuolumne	ONLY_DAILY
SPF	Spotted Fawn	38.092	-119.758	7800	2380	200.66	277.89	475.19	625.27	770.34	790.37	793.52	691.37	526.13	339.94	214.28	170.69	Tuolumne	MONTHLY
HCL	Huckleberry Lake	38.102	-119.745	7800	2380	201.03	278.18	475.24	625.35	769.83	789.54	792.85	691.48	526.10	340.35	214.53	170.73	Tuolumne	MONTHLY
PDS	Paradise Meadow	38.047	-119.670	7650	2330	231.82	310.83	508.75	641.79	767.52	778.51	786.12	701.98	556.30	375.69	245.72	198.48	Tuolumne	BOTH
KRC	Kerrick Corral	38.177	-119.960	7000	2130	232.99	305.99	486.58	595.96	703.53	709.60	719.02	648.74	526.68	367.15	246.09	201.68	Tuolumne	MONTHLY
VNN	Vernon Lake	38.017	-119.717	6700	2040	198.03	274.04	466.00	607.73	742.33	759.27	763.45	670.00	514.73	334.96	211.34	167.80	Tuolumne	MONTHLY
LKB	Lower Kibbie	38.033	-119.878	6700	2040	197.34	266.84	447.62	566.67	682.75	695.36	700.31	621.22	490.29	325.80	209.10	169.92	Tuolumne	MONTHLY
UKR	Upper Kibbie Ridge	38.043	-119.887	6700	2040	220.81	297.70	491.85	626.57	753.39	765.41	772.35	686.77	539.25	360.69	234.53	189.70	Tuolumne	MONTHLY
BEM	Bell Meadow	38.167	-119.942	6500	1980	181.78	256.22	445.88	593.45	735.96	756.84	759.03	657.89	495.58	315.10	194.92	153.67	Tuolumne	MONTHLY
BHV	Beehive Meadow	37.995	-119.780	6500	1980	231.22	308.54	503.00	632.37	752.40	761.02	769.63	690.65	549.41	372.49	244.97	199.03	Tuolumne	MONTHLY
SNF	Snow Flat	37.827	-119.497	8700	2650	241.46	321.64	526.71	668.31	802.45	815.44	822.64	732.14	576.74	388.56	255.67	208.39	Merced	BOTH
STR	Ostrander Lake	37.637	-119.550	8200	2500	164.38	238.34	429.05	588.85	746.59	774.85	773.53	657.88	481.48	295.98	177.31	137.48	Merced	BOTH
TNY	Tenaya Lake	37.838	-119.448	8150	2480	177.54	261.83	455.27	604.95	746.48	768.16	769.37	669.45	506.39	322.20	192.57	146.99	Merced	BOTH
PGM	Peregoy Meadows	37.667	-119.625	7000	2130	205.19	281.93	476.85	620.47	757.77	774.72	779.25	683.96	526.24	343.86	218.83	175.15	Merced	MONTHLY
GFL	Gin Flat	37.765	-119.773	7000	2130	203.72	280.68	476.38	621.73	761.04	778.75	782.94	685.89	526.19	342.67	217.39	173.74	Merced	MONTHLY
MNP	Mono Pass	37.438	-118.773	11450	3490	165.85	237.07	418.40	567.33	713.83	740.00	738.60	632.04	467.63	293.19	177.66	139.79	San Joaquin	MONTHLY
PPS	Piute Pass	37.240	-118.687	11300	3440	246.69	328.69	540.71	692.04	838.86	855.72	861.57	760.41	593.35	397.31	261.13	213.10	San Joaquin	MONTHLY
EML	Emerald Lake	37.183	-118.762	10600	3230	191.71	269.75	473.64	637.66	799.26	826.11	826.41	709.34	528.06	332.43	205.36	162.27	San Joaquin	MONTHLY
PNB	Pioneer Basin	37.457	-118.795	10400	3170	238.75	319.88	528.91	678.11	822.74	839.43	845.15	745.65	580.87	387.33	253.09	205.69	San Joaquin	MONTHLY
HRT	Heart Lake	37.272	-118.877	10100	3080	204.69	282.38	482.37	635.41	783.92	804.91	807.20	703.29	534.49	345.10	218.43	174.45	San Joaquin	MONTHLY
VLC	Volcanic Knob	37.388	-118.903	10050	3060	182.61	260.39	461.67	627.33	791.39	819.87	819.08	699.48	516.19	321.81	196.30	153.92	San Joaquin	BOTH
RMR	Rose Marie	37.320	-118.872	10000	3050	238.49	319.43	526.82	676.02	818.67	836.23	841.26	742.66	578.59	386.64	252.72	205.29	San Joaquin	MONTHLY
CBM	Colby Meadow	37.178	-118.720	9700	2960	214.39	293.09	495.72	648.29	795.74	816.10	819.20	716.12	547.62	357.25	228.25	183.31	San Joaquin	MONTHLY
AGP	Agnew Pass	37.7244	-119.1430	9450	2880	226.37	301.24	492.02	624.86	749.18	761.13	768.12	684.29	538.77	363.54	239.73	195.48	San Joaquin	BOTH
KSP	Kaiser Point	37.300	-119.100	9200	2800	202.32	279.81	479.22	632.81	782.63	804.43	806.93	700.55	531.11	342.33	215.99	172.51	San Joaquin	ONLY_DAILY
DTL	Dutch Lake	37.258	-118.997	9100	2770	229.14	308.78	513.62	661.69	803.82	820.79	826.15	727.87	564.97	374.54	243.25	196.85	San Joaquin	MONTHLY
KSR	Kaiser Pass	37.295	-119.102	9100	2770	226.41	306.50	511.75	660.89	804.52	821.81	826.95	727.50	563.25	372.23	240.56	194.46	San Joaquin	MONTHLY
CYT	Coyote Lake	37.208	-119.073	8850	2700	236.88	316.71	520.61	663.06	798.90	812.90	819.57	727.19	570.62	383.00	251.04	204.28	San Joaquin	MONTHLY
CRA	Cora Lakes	37.598	-119.267	8400	2560	208.59	286.49	485.88	635.42	779.89	799.11	802.80	701.53	536.92	349.59	222.39	178.18	San Joaquin	MONTHLY
BDF	Badger Flat	37.265	-119.108	8300	2530	199.43	276.89	475.42	627.51	774.47	795.48	798.13	694.33	527.02	339.04	213.04	169.46	San Joaquin	MONTHLY
NLL	Nellie Lake	37.257	-119.225	8000	2440	236.04	315.65	517.95	657.41	789.33	801.88	809.13	720.21	567.19	381.61	250.22	203.47	San Joaquin	MONTHLY
GRM	Green Mountain	37.555	-119.238	7900	2410	239.55	318.92	520.12	656.13	784.06	794.85	802.87	717.57	568.50	384.92	253.71	206.77	San Joaquin	ONLY_DAILY
THE	Lake Thomas A Edison	37.382	-119.020	7800	2380	203.81	281.32	479.23	628.23	771.93	791.15	794.77	693.97	530.01	343.76	217.55	173.76	San Joaquin	MONTHLY
DPO	Devil's Postpile	37.6294	-119.0847	7569	2307	209.57	285.69	482.91	628.50	766.02	783.02	787.71	692.26	533.50	348.21	222.75	179.04	San Joaquin	ONLY_DAILY
TMR	Tamarack Summit	37.165	-119.200	7550	2300	182.04	257.48	451.02	604.67	754.32	777.75	778.90	671.66	502.37	317.23	195.31	153.66	San Joaquin	ONLY_DAILY
CKT	Chilkoot Lake	37.408	-119.480	7450	2270	208.62	286.10	483.34	628.70	767.98	785.27	789.79	693.04	533.30	348.78	222.36	178.23	San Joaquin	MONTHLY
CHM	Chilkoot Meadow	37.410	-119.490	7150	2180	206.15	283.03	478.79	623.26	761.43	778.64	783.10	687.15	528.45	345.20	219.75	175.93	San Joaquin	ONLY_DAILY
HTT	Huntington Lake	37.228	-119.222	7000	2130	197.76	273.44	465.95	610.09	748.37	766.44	770.25	673.59	515.22	334.21	211.18	168.42	San Joaquin	BOTH
CLM	Clover Meadow	37.528	-119.275	7000	2130	202.81	279.64	475.00	620.32	759.66	777.49	781.63	684.47	524.78	341.48	216.46	172.91	San Joaquin	MONTHLY
JCM	Jackass Meadow	37.497	-119.330	6950	2120	199.57	276.05	470.61	616.45	756.43	774.74	778.56	680.68	520.42	337.45	213.15	169.95	San Joaquin	MONTHLY
GRV	Graveyard Meadow	37.465	-119.290	6900	2100	258.81	337.57	534.37	653.78	762.12	764.63	776.47	708.91	578.91	404.23	272.97	224.80	San Joaquin	ONLY_DAILY
PSR	Poison Ridge	37.403	-119.520	6900	2100	164.66	237.97	426.17	581.30	733.37	759.16	758.82	648.39	477.28	295.09	177.59	138.03	San Joaquin	ONLY_DAILY
CHQ	Chiquito Creek	37.498	-119.408	6800	2070	215.56	292.89	488.35	627.42	759.52	773.87	779.65	689.49	536.79	355.73	229.34	184.69	San Joaquin	MONTHLY
PMD	Poison Meadow	37.397	-119.518	6800	2070	238.97	317.18	513.76	642.76	762.37	770.30	779.46	701.24	560.21	382.18	252.99	206.35	San Joaquin	MONTHLY
																			
																			
																			
																			
																			
																			
																			
